{"type":"FeatureCollection","features":[{"type":"Feature","properties":{"Name":"Vancouver"},"geometry":{"type":"Point","coordinates":[-122.34374999999999,49.32512199104001]}},{"type":"Feature","properties":{"Name":"Calgary"},"geometry":{"type":"Point","coordinates":[-114.08203125,51.09662294502995]}},{"type":"Feature","properties":{"Name":"Edmonton"},"geometry":{"type":"Point","coordinates":[-113.51074218749999,53.56641415275043]}},{"type":"Feature","properties":{"Name":"Prince George"},"geometry":{"type":"Point","coordinates":[-122.78320312499999,53.93021986394]}},{"type":"Feature","properties":{"Name":"Fort St. John"},"geometry":{"type":"Point","coordinates":[-120.80566406250001,56.24334992410525]}},{"type":"Feature","properties":{"Name":"Prince Rupert"},"geometry":{"type":"Point","coordinates":[-130.3857421875,54.34214886448341]}},{"type":"Feature","properties":{"Name":"Fort McMurray"},"geometry":{"type":"Point","coordinates":[-111.26953125,56.65622649350222]}}]}